[
  { "name": "City centre", "lat": 0.0, "lon": 0.0 },
  { "name": "Aigburth", "lat": 53.37342, "lon": -2.93383 },
  { "name": "Anfield", "lat": 53.4328, "lon": -2.9547 },
  { "name": "Bootle", "lat": 53.4509, "lon": -2.9904 },
  { "name": "Broad Green", "lat": 0.0, "lon": 0.0 },
  { "name": "Calderstones", "lat": 0.0, "lon": 0.0 },
  { "name": "Childwall", "lat": 53.39034, "lon": -2.89955 },
  { "name": "Clubmoor", "lat": 0.0, "lon": 0.0 },
  { "name": "Dingle", "lat": 0.0, "lon": 0.0 },
  { "name": "Edge Hill", "lat": 0.0, "lon": 0.0 },
  { "name": "Everton", "lat": 0.0, "lon": 0.0 },
  { "name": "Fairfield", "lat": 0.0, "lon": 0.0 },
  { "name": "Fazakerley", "lat": 0.0, "lon": 0.0 },
  { "name": "Grassendale", "lat": 0.0, "lon": 0.0 },
  { "name": "Kensington", "lat": 0.0, "lon": 0.0 },
  { "name": "Kirkdale", "lat": 0.0, "lon": 0.0 },
  { "name": "Knotty Ash", "lat": 0.0, "lon": 0.0 },
  { "name": "Mossley Hill", "lat": 53.38559, "lon": -2.915830 },
  { "name": "Newsham", "lat": 0.0, "lon": 0.0 },
  { "name": "Norris Green", "lat": 0.0, "lon": 0.0 },
  { "name": "Old Swan", "lat": 53.41339, "lon": -2.91319 },
  { "name": "Orrell", "lat": 0.0, "lon": 0.0 },
  { "name": "Princes Park", "lat": 0.0, "lon": 0.0 },
  { "name": "Seaforth", "lat": 53.46781, "lon": -3.01111 },
  { "name": "Sefton Park", "lat": 0.0, "lon": 0.0 },
  { "name": "Toxteth", "lat": 53.39136, "lon": -2.967250 },
  { "name": "Tuebrook", "lat": 0.0, "lon": 0.0 },
  { "name": "Vauxhall", "lat": 0.0, "lon": 0.0 },
  { "name": "Victoria Park", "lat": 0.0, "lon": 0.0 },
  { "name": "Walton", "lat": 0.0, "lon": 0.0 },
  { "name": "Waterloo", "lat": 53.47721, "lon": -3.02307 },
  { "name": "Wavertree", "lat": 0.0, "lon": 0.0 },
  { "name": "West Derby", "lat": 53.43261, "lon": -2.90927 }
]

